{
  "type": "FeatureCollection",
  "features": [
    {
      "type": "Feature",
      "geometry": {
        "type": "Point",
        "coordinates": [
          20.0881081,
          49.1795756
        ]
      },
      "properties": {
        "nazwa": "Rysy",
        "wysokosc": 2499.0,
        "zdobyty": false,
        "data": null,
        "instagram": null
      }
    },
    {
      "type": "Feature",
      "geometry": {
        "type": "Point",
        "coordinates": [
          20.0880078,
          49.1833905
        ]
      },
      "properties": {
        "nazwa": "Niżnie Rysy",
        "wysokosc": 2430.0,
        "zdobyty": false,
        "data": null,
        "instagram": null
      }
    },
    {
      "type": "Feature",
      "geometry": {
        "type": "Point",
        "coordinates": [
          20.0617255,
          49.1849729
        ]
      },
      "properties": {
        "nazwa": "Mięguszowiecki Szczyt Pośredni",
        "wysokosc": 2389.0,
        "zdobyty": false,
        "data": null,
        "instagram": null
      }
    },
    {
      "type": "Feature",
      "geometry": {
        "type": "Point",
        "coordinates": [
          20.0751157,
          49.1789015
        ]
      },
      "properties": {
        "nazwa": "Wołowa Turnia",
        "wysokosc": 2373.0,
        "zdobyty": false,
        "data": null,
        "instagram": null
      }
    },
    {
      "type": "Feature",
      "geometry": {
        "type": "Point",
        "coordinates": [
          20.0093063,
          49.2194211
        ]
      },
      "properties": {
        "nazwa": "Świnica",
        "wysokosc": 2302.0,
        "zdobyty": true,
        "data": null,
        "instagram": "a"
      }
    },
    {
      "type": "Feature",
      "geometry": {
        "type": "Point",
        "coordinates": [
          20.0096116,
          49.2193742
        ]
      },
      "properties": {
        "nazwa": "Świnicka Kopa",
        "wysokosc": 2298.0,
        "zdobyty": false,
        "data": null,
        "instagram": null
      }
    },
    {
      "type": "Feature",
      "geometry": {
        "type": "Point",
        "coordinates": [
          20.0287051,
          49.2183172
        ]
      },
      "properties": {
        "nazwa": "Kozi Wierch",
        "wysokosc": 2291.0,
        "zdobyty": true,
        "data": null,
        "instagram": "a"
      }
    },
    {
      "type": "Feature",
      "geometry": {
        "type": "Point",
        "coordinates": [
          20.0276479,
          49.2186808
        ]
      },
      "properties": {
        "nazwa": "Kozie Czuby",
        "wysokosc": 2263.0,
        "zdobyty": false,
        "data": null,
        "instagram": null
      }
    },
    {
      "type": "Feature",
      "geometry": {
        "type": "Point",
        "coordinates": [
          20.0338276,
          49.2202917
        ]
      },
      "properties": {
        "nazwa": "Buczynowa Strażnica",
        "wysokosc": 2242.0,
        "zdobyty": false,
        "data": null,
        "instagram": null
      }
    },
    {
      "type": "Feature",
      "geometry": {
        "type": "Point",
        "coordinates": [
          20.0325692,
          49.2247696
        ]
      },
      "properties": {
        "nazwa": "Zadni Granat",
        "wysokosc": 2240.0,
        "zdobyty": true,
        "data": null,
        "instagram": "a"
      }
    },
    {
      "type": "Feature",
      "geometry": {
        "type": "Point",
        "coordinates": [
          20.0327347,
          49.2257013
        ]
      },
      "properties": {
        "nazwa": "Pośredni Granat",
        "wysokosc": 2234.0,
        "zdobyty": false,
        "data": null,
        "instagram": null
      }
    },
    {
      "type": "Feature",
      "geometry": {
        "type": "Point",
        "coordinates": [
          20.0332931,
          49.2269445
        ]
      },
      "properties": {
        "nazwa": "Skrajny Granat",
        "wysokosc": 2228.0,
        "zdobyty": false,
        "data": null,
        "instagram": null
      }
    },
    {
      "type": "Feature",
      "geometry": {
        "type": "Point",
        "coordinates": [
          20.020038,
          49.2189222
        ]
      },
      "properties": {
        "nazwa": "Mały Kozi Wierch",
        "wysokosc": 2226.0,
        "zdobyty": false,
        "data": null,
        "instagram": null
      }
    },
    {
      "type": "Feature",
      "geometry": {
        "type": "Point",
        "coordinates": [
          20.0495127,
          49.2353625
        ]
      },
      "properties": {
        "nazwa": "Wielka Koszysta",
        "wysokosc": 2193.0,
        "zdobyty": false,
        "data": null,
        "instagram": null
      }
    },
    {
      "type": "Feature",
      "geometry": {
        "type": "Point",
        "coordinates": [
          20.0469444,
          49.2319444
        ]
      },
      "properties": {
        "nazwa": "Waksmundzki Wierch",
        "wysokosc": 2189.0,
        "zdobyty": false,
        "data": null,
        "instagram": null
      }
    },
    {
      "type": "Feature",
      "geometry": {
        "type": "Point",
        "coordinates": [
          20.0325126,
          49.2213441
        ]
      },
      "properties": {
        "nazwa": "Czarny Mniszek",
        "wysokosc": 2178.0,
        "zdobyty": false,
        "data": null,
        "instagram": null
      }
    },
    {
      "type": "Feature",
      "geometry": {
        "type": "Point",
        "coordinates": [
          20.0357587,
          49.2273331
        ]
      },
      "properties": {
        "nazwa": "Orla Baszta",
        "wysokosc": 2177.0,
        "zdobyty": false,
        "data": null,
        "instagram": null
      }
    },
    {
      "type": "Feature",
      "geometry": {
        "type": "Point",
        "coordinates": [
          19.8199409,
          49.199371
        ]
      },
      "properties": {
        "nazwa": "Starorobociański Wierch",
        "wysokosc": 2176.0,
        "zdobyty": false,
        "data": null,
        "instagram": null
      }
    },
    {
      "type": "Feature",
      "geometry": {
        "type": "Point",
        "coordinates": [
          20.0401058,
          49.1972908
        ]
      },
      "properties": {
        "nazwa": "Szpiglasowy Wierch",
        "wysokosc": 2172.1,
        "zdobyty": false,
        "data": null,
        "instagram": null
      }
    },
    {
      "type": "Feature",
      "geometry": {
        "type": "Point",
        "coordinates": [
          20.0430864,
          49.227426
        ]
      },
      "properties": {
        "nazwa": "Mała Buczynowa Turnia",
        "wysokosc": 2172.0,
        "zdobyty": false,
        "data": null,
        "instagram": null
      }
    },
    {
      "type": "Feature",
      "geometry": {
        "type": "Point",
        "coordinates": [
          20.0155525,
          49.2236914
        ]
      },
      "properties": {
        "nazwa": "Zadni Kościelec",
        "wysokosc": 2162.0,
        "zdobyty": false,
        "data": null,
        "instagram": null
      }
    },
    {
      "type": "Feature",
      "geometry": {
        "type": "Point",
        "coordinates": [
          19.8409972,
          49.1926302
        ]
      },
      "properties": {
        "nazwa": "Błyszcz",
        "wysokosc": 2159.0,
        "zdobyty": false,
        "data": null,
        "instagram": null
      }
    },
    {
      "type": "Feature",
      "geometry": {
        "type": "Point",
        "coordinates": [
          20.0697268,
          49.1852039
        ]
      },
      "properties": {
        "nazwa": "Kazalnica Mięguszowiecka",
        "wysokosc": 2159.0,
        "zdobyty": false,
        "data": null,
        "instagram": null
      }
    },
    {
      "type": "Feature",
      "geometry": {
        "type": "Point",
        "coordinates": [
          20.0353128,
          49.2272058
        ]
      },
      "properties": {
        "nazwa": "Mała Orla Turniczka",
        "wysokosc": 2158.0,
        "zdobyty": false,
        "data": null,
        "instagram": null
      }
    },
    {
      "type": "Feature",
      "geometry": {
        "type": "Point",
        "coordinates": [
          20.0068154,
          49.2134347
        ]
      },
      "properties": {
        "nazwa": "Walentkowy Wierch",
        "wysokosc": 2156.0,
        "zdobyty": false,
        "data": null,
        "instagram": null
      }
    },
    {
      "type": "Feature",
      "geometry": {
        "type": "Point",
        "coordinates": [
          20.0145834,
          49.2251794
        ]
      },
      "properties": {
        "nazwa": "Kościelec",
        "wysokosc": 2155.0,
        "zdobyty": false,
        "data": null,
        "instagram": null
      }
    },
    {
      "type": "Feature",
      "geometry": {
        "type": "Point",
        "coordinates": [
          20.0464117,
          49.2284705
        ]
      },
      "properties": {
        "nazwa": "Kopa nad Krzyżnem",
        "wysokosc": 2135.0,
        "zdobyty": false,
        "data": null,
        "instagram": null
      }
    },
    {
      "type": "Feature",
      "geometry": {
        "type": "Point",
        "coordinates": [
          20.0074114,
          49.2139558
        ]
      },
      "properties": {
        "nazwa": "Niżnia Walentkowa Baszta",
        "wysokosc": 2129.0,
        "zdobyty": false,
        "data": null,
        "instagram": null
      }
    },
    {
      "type": "Feature",
      "geometry": {
        "type": "Point",
        "coordinates": [
          19.9094918,
          49.2316647
        ]
      },
      "properties": {
        "nazwa": "Krzesanica",
        "wysokosc": 2122.0,
        "zdobyty": false,
        "data": null,
        "instagram": null
      }
    },
    {
      "type": "Feature",
      "geometry": {
        "type": "Point",
        "coordinates": [
          20.0405567,
          49.1951931
        ]
      },
      "properties": {
        "nazwa": "Szpiglasowy Ząb",
        "wysokosc": 2120.0,
        "zdobyty": false,
        "data": null,
        "instagram": null
      }
    },
    {
      "type": "Feature",
      "geometry": {
        "type": "Point",
        "coordinates": [
          19.9034053,
          49.2310073
        ]
      },
      "properties": {
        "nazwa": "Ciemniak",
        "wysokosc": 2096.0,
        "zdobyty": false,
        "data": null,
        "instagram": null
      }
    },
    {
      "type": "Feature",
      "geometry": {
        "type": "Point",
        "coordinates": [
          19.9192231,
          49.2358298
        ]
      },
      "properties": {
        "nazwa": "Małołączniak",
        "wysokosc": 2096.0,
        "zdobyty": false,
        "data": null,
        "instagram": null
      }
    },
    {
      "type": "Feature",
      "geometry": {
        "type": "Point",
        "coordinates": [
          20.0333875,
          49.1992073
        ]
      },
      "properties": {
        "nazwa": "Wyżni Kostur",
        "wysokosc": 2083.0,
        "zdobyty": false,
        "data": null,
        "instagram": null
      }
    },
    {
      "type": "Feature",
      "geometry": {
        "type": "Point",
        "coordinates": [
          19.8839454,
          49.2041744
        ]
      },
      "properties": {
        "nazwa": "Smreczyński Wierch",
        "wysokosc": 2068.0,
        "zdobyty": false,
        "data": null,
        "instagram": null
      }
    },
    {
      "type": "Feature",
      "geometry": {
        "type": "Point",
        "coordinates": [
          20.0134135,
          49.2067762
        ]
      },
      "properties": {
        "nazwa": "Gładki Wierch",
        "wysokosc": 2065.0,
        "zdobyty": false,
        "data": null,
        "instagram": null
      }
    },
    {
      "type": "Feature",
      "geometry": {
        "type": "Point",
        "coordinates": [
          19.7631281,
          49.2075694
        ]
      },
      "properties": {
        "nazwa": "Wołowiec",
        "wysokosc": 2064.0,
        "zdobyty": true,
        "data": null,
        "instagram": "a"
      }
    },
    {
      "type": "Feature",
      "geometry": {
        "type": "Point",
        "coordinates": [
          20.0322557,
          49.1999582
        ]
      },
      "properties": {
        "nazwa": "Niżni Kostur",
        "wysokosc": 2055.0,
        "zdobyty": false,
        "data": null,
        "instagram": null
      }
    },
    {
      "type": "Feature",
      "geometry": {
        "type": "Point",
        "coordinates": [
          19.8008168,
          49.2022301
        ]
      },
      "properties": {
        "nazwa": "Kopa Prawdy",
        "wysokosc": 2027.0,
        "zdobyty": false,
        "data": null,
        "instagram": null
      }
    },
    {
      "type": "Feature",
      "geometry": {
        "type": "Point",
        "coordinates": [
          19.9003,
          49.2346773
        ]
      },
      "properties": {
        "nazwa": "Twarda Kopa",
        "wysokosc": 2026.0,
        "zdobyty": false,
        "data": null,
        "instagram": null
      }
    },
    {
      "type": "Feature",
      "geometry": {
        "type": "Point",
        "coordinates": [
          20.0535269,
          49.243757
        ]
      },
      "properties": {
        "nazwa": "Mała Koszysta",
        "wysokosc": 2014.0,
        "zdobyty": false,
        "data": null,
        "instagram": null
      }
    },
    {
      "type": "Feature",
      "geometry": {
        "type": "Point",
        "coordinates": [
          19.9879231,
          49.2282368
        ]
      },
      "properties": {
        "nazwa": "Beskid",
        "wysokosc": 2012.0,
        "zdobyty": true,
        "data": null,
        "instagram": "a"
      }
    },
    {
      "type": "Feature",
      "geometry": {
        "type": "Point",
        "coordinates": [
          19.9322676,
          49.2365407
        ]
      },
      "properties": {
        "nazwa": " Kopa Kondracka",
        "wysokosc": 2005.0,
        "zdobyty": true,
        "data": null,
        "instagram": "a"
      }
    },
    {
      "type": "Feature",
      "geometry": {
        "type": "Point",
        "coordinates": [
          19.8075854,
          49.2056581
        ]
      },
      "properties": {
        "nazwa": "Kończysty Wierch",
        "wysokosc": 2002.0,
        "zdobyty": false,
        "data": null,
        "instagram": null
      }
    },
    {
      "type": "Feature",
      "geometry": {
        "type": "Point",
        "coordinates": [
          20.0193718,
          49.2025598
        ]
      },
      "properties": {
        "nazwa": "Gładka Kotelnica",
        "wysokosc": 1990.0,
        "zdobyty": false,
        "data": null,
        "instagram": null
      }
    },
    {
      "type": "Feature",
      "geometry": {
        "type": "Point",
        "coordinates": [
          20.0209245,
          49.2016219
        ]
      },
      "properties": {
        "nazwa": "Wielka Kotelnica",
        "wysokosc": 1987.0,
        "zdobyty": false,
        "data": null,
        "instagram": null
      }
    },
    {
      "type": "Feature",
      "geometry": {
        "type": "Point",
        "coordinates": [
          19.9815609,
          49.2318014
        ]
      },
      "properties": {
        "nazwa": "Kasprowy Wierch",
        "wysokosc": 1987.0,
        "zdobyty": true,
        "data": null,
        "instagram": "a"
      }
    },
    {
      "type": "Feature",
      "geometry": {
        "type": "Point",
        "coordinates": [
          19.9023403,
          49.2133146
        ]
      },
      "properties": {
        "nazwa": "Tomanowy Wierch Polski",
        "wysokosc": 1977.0,
        "zdobyty": false,
        "data": null,
        "instagram": null
      }
    },
    {
      "type": "Feature",
      "geometry": {
        "type": "Point",
        "coordinates": [
          20.0264928,
          49.2004356
        ]
      },
      "properties": {
        "nazwa": "Mała Kotelnica",
        "wysokosc": 1974.0,
        "zdobyty": false,
        "data": null,
        "instagram": null
      }
    },
    {
      "type": "Feature",
      "geometry": {
        "type": "Point",
        "coordinates": [
          19.8295433,
          49.2016538
        ]
      },
      "properties": {
        "nazwa": "Siwy Zwornik",
        "wysokosc": 1965.0,
        "zdobyty": false,
        "data": null,
        "instagram": null
      }
    },
    {
      "type": "Feature",
      "geometry": {
        "type": "Point",
        "coordinates": [
          19.9052018,
          49.2247799
        ]
      },
      "properties": {
        "nazwa": "Głazista Turnia",
        "wysokosc": 1949.0,
        "zdobyty": false,
        "data": null,
        "instagram": null
      }
    },
    {
      "type": "Feature",
      "geometry": {
        "type": "Point",
        "coordinates": [
          19.8968976,
          49.2120048
        ]
      },
      "properties": {
        "nazwa": "Tomanowa Kopa",
        "wysokosc": 1899.0,
        "zdobyty": false,
        "data": null,
        "instagram": null
      }
    },
    {
      "type": "Feature",
      "geometry": {
        "type": "Point",
        "coordinates": [
          20.0128241,
          49.2284512
        ]
      },
      "properties": {
        "nazwa": "Czuba nad Karbem",
        "wysokosc": 1896.0,
        "zdobyty": false,
        "data": null,
        "instagram": null
      }
    },
    {
      "type": "Feature",
      "geometry": {
        "type": "Point",
        "coordinates": [
          19.9341016,
          49.2509538
        ]
      },
      "properties": {
        "nazwa": "Wielki Giewont",
        "wysokosc": 1894.5,
        "zdobyty": true,
        "data": null,
        "instagram": "a"
      }
    },
    {
      "type": "Feature",
      "geometry": {
        "type": "Point",
        "coordinates": [
          19.9403201,
          49.2336471
        ]
      },
      "properties": {
        "nazwa": "Suchy Wierch Kondracki",
        "wysokosc": 1893.0,
        "zdobyty": false,
        "data": null,
        "instagram": null
      }
    },
    {
      "type": "Feature",
      "geometry": {
        "type": "Point",
        "coordinates": [
          19.7584624,
          49.215958
        ]
      },
      "properties": {
        "nazwa": "Rakoń",
        "wysokosc": 1879.0,
        "zdobyty": true,
        "data": null,
        "instagram": "a"
      }
    },
    {
      "type": "Feature",
      "geometry": {
        "type": "Point",
        "coordinates": [
          20.0588475,
          49.2143579
        ]
      },
      "properties": {
        "nazwa": "Świstowa Kopa",
        "wysokosc": 1875.0,
        "zdobyty": false,
        "data": null,
        "instagram": null
      }
    },
    {
      "type": "Feature",
      "geometry": {
        "type": "Point",
        "coordinates": [
          19.9661663,
          49.2312889
        ]
      },
      "properties": {
        "nazwa": "Pośredni Goryczkowy Wierch",
        "wysokosc": 1874.0,
        "zdobyty": false,
        "data": null,
        "instagram": null
      }
    },
    {
      "type": "Feature",
      "geometry": {
        "type": "Point",
        "coordinates": [
          19.9019256,
          49.216583
        ]
      },
      "properties": {
        "nazwa": "Suchy Wierch Tomanowy",
        "wysokosc": 1869.0,
        "zdobyty": false,
        "data": null,
        "instagram": null
      }
    },
    {
      "type": "Feature",
      "geometry": {
        "type": "Point",
        "coordinates": [
          19.835383,
          49.2129588
        ]
      },
      "properties": {
        "nazwa": "Zadni Ornak",
        "wysokosc": 1867.0,
        "zdobyty": false,
        "data": null,
        "instagram": null
      }
    },
    {
      "type": "Feature",
      "geometry": {
        "type": "Point",
        "coordinates": [
          20.011406,
          49.2299344
        ]
      },
      "properties": {
        "nazwa": "Mały Kościelec",
        "wysokosc": 1866.0,
        "zdobyty": false,
        "data": null,
        "instagram": null
      }
    },
    {
      "type": "Feature",
      "geometry": {
        "type": "Point",
        "coordinates": [
          19.8329494,
          49.2190459
        ]
      },
      "properties": {
        "nazwa": "Ornak",
        "wysokosc": 1854.0,
        "zdobyty": false,
        "data": null,
        "instagram": null
      }
    },
    {
      "type": "Feature",
      "geometry": {
        "type": "Point",
        "coordinates": [
          19.8349199,
          49.2069618
        ]
      },
      "properties": {
        "nazwa": "Kotłowa Czubka",
        "wysokosc": 1840.0,
        "zdobyty": false,
        "data": null,
        "instagram": null
      }
    },
    {
      "type": "Feature",
      "geometry": {
        "type": "Point",
        "coordinates": [
          19.8336342,
          49.2221134
        ]
      },
      "properties": {
        "nazwa": "Suchy Wierch Ornaczański",
        "wysokosc": 1832.0,
        "zdobyty": false,
        "data": null,
        "instagram": null
      }
    },
    {
      "type": "Feature",
      "geometry": {
        "type": "Point",
        "coordinates": [
          19.8355407,
          49.240814
        ]
      },
      "properties": {
        "nazwa": "Kominiarski Wierch",
        "wysokosc": 1829.0,
        "zdobyty": false,
        "data": null,
        "instagram": null
      }
    },
    {
      "type": "Feature",
      "geometry": {
        "type": "Point",
        "coordinates": [
          19.8932075,
          49.2295877
        ]
      },
      "properties": {
        "nazwa": "Kazalnica",
        "wysokosc": 1767.0,
        "zdobyty": false,
        "data": null,
        "instagram": null
      }
    },
    {
      "type": "Feature",
      "geometry": {
        "type": "Point",
        "coordinates": [
          20.0575189,
          49.2164694
        ]
      },
      "properties": {
        "nazwa": "Świstowa Czuba",
        "wysokosc": 1763.0,
        "zdobyty": false,
        "data": null,
        "instagram": null
      }
    },
    {
      "type": "Feature",
      "geometry": {
        "type": "Point",
        "coordinates": [
          19.8037262,
          49.2191036
        ]
      },
      "properties": {
        "nazwa": "Trzydniowiański Wierch",
        "wysokosc": 1758.0,
        "zdobyty": false,
        "data": null,
        "instagram": null
      }
    },
    {
      "type": "Feature",
      "geometry": {
        "type": "Point",
        "coordinates": [
          19.7666402,
          49.2366407
        ]
      },
      "properties": {
        "nazwa": "Grześ",
        "wysokosc": 1653.0,
        "zdobyty": true,
        "data": null,
        "instagram": "a"
      }
    },
    {
      "type": "Feature",
      "geometry": {
        "type": "Point",
        "coordinates": [
          19.7784434,
          49.2453567
        ]
      },
      "properties": {
        "nazwa": "Jamborowy Wierch",
        "wysokosc": 1565.0,
        "zdobyty": false,
        "data": null,
        "instagram": null
      }
    },
    {
      "type": "Feature",
      "geometry": {
        "type": "Point",
        "coordinates": [
          19.7887314,
          49.2616215
        ]
      },
      "properties": {
        "nazwa": "Furkaska",
        "wysokosc": 1491.0,
        "zdobyty": false,
        "data": null,
        "instagram": null
      }
    },
    {
      "type": "Feature",
      "geometry": {
        "type": "Point",
        "coordinates": [
          20.0765188,
          49.2590286
        ]
      },
      "properties": {
        "nazwa": "Gęsia Szyja",
        "wysokosc": 1489.0,
        "zdobyty": true,
        "data": null,
        "instagram": "a"
      }
    },
    {
      "type": "Feature",
      "geometry": {
        "type": "Point",
        "coordinates": [
          19.7904947,
          49.2556794
        ]
      },
      "properties": {
        "nazwa": "Parzątczak",
        "wysokosc": 1486.0,
        "zdobyty": false,
        "data": null,
        "instagram": null
      }
    },
    {
      "type": "Feature",
      "geometry": {
        "type": "Point",
        "coordinates": [
          20.0611722,
          49.2641904
        ]
      },
      "properties": {
        "nazwa": "Ostry Wierch",
        "wysokosc": 1475.0,
        "zdobyty": false,
        "data": null,
        "instagram": null
      }
    },
    {
      "type": "Feature",
      "geometry": {
        "type": "Point",
        "coordinates": [
          19.9154426,
          49.2621551
        ]
      },
      "properties": {
        "nazwa": "Łysanki",
        "wysokosc": 1446.7,
        "zdobyty": false,
        "data": null,
        "instagram": null
      }
    },
    {
      "type": "Feature",
      "geometry": {
        "type": "Point",
        "coordinates": [
          20.0629533,
          49.2682009
        ]
      },
      "properties": {
        "nazwa": "Zadnia Kopa Sołtysia",
        "wysokosc": 1420.0,
        "zdobyty": false,
        "data": null,
        "instagram": null
      }
    },
    {
      "type": "Feature",
      "geometry": {
        "type": "Point",
        "coordinates": [
          19.91715,
          49.2565523
        ]
      },
      "properties": {
        "nazwa": "Grzybowiec",
        "wysokosc": 1417.0,
        "zdobyty": false,
        "data": null,
        "instagram": null
      }
    },
    {
      "type": "Feature",
      "geometry": {
        "type": "Point",
        "coordinates": [
          19.9635503,
          49.2616531
        ]
      },
      "properties": {
        "nazwa": "Biała Czubka",
        "wysokosc": 1333.0,
        "zdobyty": false,
        "data": null,
        "instagram": null
      }
    },
    {
      "type": "Feature",
      "geometry": {
        "type": "Point",
        "coordinates": [
          20.0163039,
          49.2716554
        ]
      },
      "properties": {
        "nazwa": "Wielki Kopieniec",
        "wysokosc": 1328.0,
        "zdobyty": true,
        "data": null,
        "instagram": "a"
      }
    },
    {
      "type": "Feature",
      "geometry": {
        "type": "Point",
        "coordinates": [
          19.8319967,
          49.2610427
        ]
      },
      "properties": {
        "nazwa": "Kuca",
        "wysokosc": 1294.0,
        "zdobyty": false,
        "data": null,
        "instagram": null
      }
    },
    {
      "type": "Feature",
      "geometry": {
        "type": "Point",
        "coordinates": [
          19.989459,
          49.2764311
        ]
      },
      "properties": {
        "nazwa": "Nosal",
        "wysokosc": 1205.7,
        "zdobyty": true,
        "data": null,
        "instagram": "a"
      }
    },
    {
      "type": "Feature",
      "geometry": {
        "type": "Point",
        "coordinates": [
          19.8784308,
          49.2563337
        ]
      },
      "properties": {
        "nazwa": "Upłaziański Wierszyk",
        "wysokosc": 1203.0,
        "zdobyty": false,
        "data": null,
        "instagram": null
      }
    },
    {
      "type": "Feature",
      "geometry": {
        "type": "Point",
        "coordinates": [
          19.8019062,
          49.2705055
        ]
      },
      "properties": {
        "nazwa": "Koryciańska Czuba",
        "wysokosc": 1161.0,
        "zdobyty": false,
        "data": null,
        "instagram": null
      }
    },
    {
      "type": "Feature",
      "geometry": {
        "type": "Point",
        "coordinates": [
          19.8136274,
          49.2752197
        ]
      },
      "properties": {
        "nazwa": "Mała Furkaska",
        "wysokosc": 1132.0,
        "zdobyty": false,
        "data": null,
        "instagram": null
      }
    },
    {
      "type": "Feature",
      "geometry": {
        "type": "Point",
        "coordinates": [
          20.0203405,
          49.2189274
        ]
      },
      "properties": {
        "nazwa": "Zmarzłe Czuby",
        "wysokosc": null,
        "zdobyty": false,
        "data": null,
        "instagram": null
      }
    },
    {
      "type": "Feature",
      "geometry": {
        "type": "Point",
        "coordinates": [
          20.0155344,
          49.2227421
        ]
      },
      "properties": {
        "nazwa": "Mylna Strażnica",
        "wysokosc": null,
        "zdobyty": false,
        "data": null,
        "instagram": null
      }
    },
    {
      "type": "Feature",
      "geometry": {
        "type": "Point",
        "coordinates": [
          19.7937911,
          49.2686704
        ]
      },
      "properties": {
        "nazwa": "Zamczysko",
        "wysokosc": null,
        "zdobyty": false,
        "data": null,
        "instagram": null
      }
    },
    {
      "type": "Feature",
      "geometry": {
        "type": "Point",
        "coordinates": [
          19.8655164,
          49.2486138
        ]
      },
      "properties": {
        "nazwa": "Głucha Skała",
        "wysokosc": null,
        "zdobyty": false,
        "data": null,
        "instagram": null
      }
    },
    {
      "type": "Feature",
      "geometry": {
        "type": "Point",
        "coordinates": [
          20.0393783,
          49.2269515
        ]
      },
      "properties": {
        "nazwa": "Budzowa Igła",
        "wysokosc": null,
        "zdobyty": false,
        "data": null,
        "instagram": null
      }
    },
    {
      "type": "Feature",
      "geometry": {
        "type": "Point",
        "coordinates": [
          20.033007,
          49.2237921
        ]
      },
      "properties": {
        "nazwa": "Skrajna Sieczkowa Turnia",
        "wysokosc": null,
        "zdobyty": false,
        "data": null,
        "instagram": null
      }
    },
    {
      "type": "Feature",
      "geometry": {
        "type": "Point",
        "coordinates": [
          20.0447103,
          49.1966364
        ]
      },
      "properties": {
        "nazwa": "Szpiglasowa Kopka",
        "wysokosc": null,
        "zdobyty": false,
        "data": null,
        "instagram": null
      }
    },
    {
      "type": "Feature",
      "geometry": {
        "type": "Point",
        "coordinates": [
          20.0438219,
          49.1928668
        ]
      },
      "properties": {
        "nazwa": "Głaźna Czuba",
        "wysokosc": null,
        "zdobyty": false,
        "data": null,
        "instagram": null
      }
    },
    {
      "type": "Feature",
      "geometry": {
        "type": "Point",
        "coordinates": [
          20.041143,
          49.1947526
        ]
      },
      "properties": {
        "nazwa": "Dziurawa Czuba",
        "wysokosc": null,
        "zdobyty": false,
        "data": null,
        "instagram": null
      }
    },
    {
      "type": "Feature",
      "geometry": {
        "type": "Point",
        "coordinates": [
          20.04067,
          49.1951186
        ]
      },
      "properties": {
        "nazwa": "Szpiglasowa Turniczka",
        "wysokosc": null,
        "zdobyty": false,
        "data": null,
        "instagram": null
      }
    },
    {
      "type": "Feature",
      "geometry": {
        "type": "Point",
        "coordinates": [
          20.0400583,
          49.1959403
        ]
      },
      "properties": {
        "nazwa": "Szpiglasowa Czuba",
        "wysokosc": null,
        "zdobyty": false,
        "data": null,
        "instagram": null
      }
    }
  ]
}